{
  "AliceSprings": {
    "display_name": "Alice Springs, NT",
    "latitude": -23.6981,
    "longitude": 133.8807,
    "state": "NT"
  },
  "BayOfFires": {
    "display_name": "Bay of Fires, TAS",
    "latitude": -41.1711,
    "longitude": 148.2742,
    "state": "TAS"
  },
  "BellsBeach": {
    "display_name": "Bells Beach, VIC",
    "latitude": -38.3706,
    "longitude": 144.2833,
    "state": "VIC"
  },
  "Birregurra": {
    "display_name": "Birregurra",
    "latitude": -38.33681,
    "longitude": 143.78473,
    "state":"VIC"
  },
  "BondiBeach": {
    "display_name": "Bondi Beach, NSW",
    "latitude": -33.8908,
    "longitude": 151.2743,
    "state": "NSW"
  },
  "BrokenHill": {
    "display_name": "Broken Hill, NSW",
    "latitude": -31.9538,
    "longitude": 141.4637,
    "state": "NSW"
  },
  "BrunyIsland": {
    "display_name": "Bruny Island, TAS",
    "latitude": -43.3322,
    "longitude": 147.2516,
    "state": "TAS"
  },
  "BunyaMountains": {
    "display_name": "Bunya Mountains, QLD",
    "latitude": -26.8368,
    "longitude": 151.5966,
    "state": "QLD"
  },
  "BurleighHeads": {
    "display_name": "Burleigh Heads, QLD",
    "latitude": -28.0873,
    "longitude": 153.4538,
    "state": "QLD"
  },
  "ByronBay": {
    "display_name": "Byron Bay, NSW",
    "latitude": -28.6474,
    "longitude": 153.6023,
    "state": "NSW"
  },
  "CactusBeach": {
    "display_name": "Cactus Beach, SA",
    "latitude": -32.0835,
    "longitude": 133.0046,
    "state": "SA"
  },
  "CarnarvonGorge": {
    "display_name": "Carnarvon Gorge, QLD",
    "latitude": -25.0639,
    "longitude": 148.2317,
    "state": "QLD"
  },
  "CliftonBeach": {
    "display_name": "Clifton Beach, TAS",
    "latitude": -42.9858,
    "longitude": 147.4714,
    "state": "TAS"
  },
  "CooberPedy": {
    "display_name": "Coober Pedy, SA",
    "latitude": -29.0135,
    "longitude": 134.7544,
    "state": "SA"
  },
  "Cottesloe": {
    "display_name": "Cottesloe, WA",
    "latitude": -31.9953,
    "longitude": 115.7518,
    "state": "WA"
  },
  "CradleMountain": {
    "display_name": "Cradle Mountain, TAS",
    "latitude": -41.6854,
    "longitude": 145.9229,
    "state": "TAS"
  },
  "Cronulla": {
    "display_name": "Cronulla, NSW",
    "latitude": -34.0583,
    "longitude": 151.1536,
    "state": "NSW"
  },
  "DevilsMarbles": {
    "display_name": "Devils Marbles, NT",
    "latitude": -20.5517,
    "longitude": 134.2632,
    "state": "NT"
  },
  "Eden": {
    "display_name": "Eden, NSW",
    "latitude": -37.0667,
    "longitude": 149.9002,
    "state": "NSW"
  },
  "EaglehawkNeck": {
    "display_name": "Eaglehawk Neck, TAS",
    "latitude": -43.0177,
    "longitude": 147.9253,
    "state": "TAS"
  },
  "Gnaraloo": {
    "display_name": "Gnaraloo, WA",
    "latitude": -23.8212,
    "longitude": 113.4755,
    "state": "WA"
  },
  "KangarooIsland": {
    "display_name": "Kangaroo Island, SA",
    "latitude": -35.9841,
    "longitude": 137.1999,
    "state": "SA"
  },
  "KirraBeach": {
    "display_name": "Kirra Beach, QLD",
    "latitude": -28.1672,
    "longitude": 153.5312,
    "state": "QLD"
  },
  "LakeBallard": {
    "display_name": "Lake Ballard, WA",
    "latitude": -29.4583,
    "longitude": 121.2173,
    "state": "WA"
  },
  "LakeTyrrell": {
    "display_name": "Lake Tyrrell, VIC",
    "latitude": -35.3163,
    "longitude": 142.7953,
    "state": "VIC"
  },
  "ManlyBeach": {
    "display_name": "Manly Beach, NSW",
    "latitude": -33.7974,
    "longitude": 151.2873,
    "state": "NSW"
  },
  "MargaretRiver": {
    "display_name": "Margaret River, WA",
    "latitude": -33.9536,
    "longitude": 115.0753,
    "state": "WA"
  },
  "Meredith": {
    "display_name": "Meredith",
    "latitude": -37.84539,
    "longitude": 144.07738,
    "state": "VIC"
  },
  "Middleton": {
    "display_name": "Middleton, SA",
    "latitude": -35.5112,
    "longitude": 138.7115,
    "state": "SA"
  },
  "MountBuffalo": {
    "display_name": "Mount Buffalo, VIC",
    "latitude": -36.7213,
    "longitude": 146.7752,
    "state": "VIC"
  },
  "MountIsA": {
    "display_name": "Mount Isa, QLD",
    "latitude": -20.7256,
    "longitude": 139.4927,
    "state": "QLD"
  },
  "MountWellington": {
    "display_name": "Mount Wellington, TAS",
    "latitude": -42.8952,
    "longitude": 147.2372,
    "state": "TAS"
  },
  "MungoNationalPark": {
    "display_name": "Mungo National Park, NSW",
    "latitude": -33.7483,
    "longitude": 143.0814,
    "state": "NSW"
  },
  "Newcastle": {
    "display_name": "Newcastle, NSW",
    "latitude": -32.9272,
    "longitude": 151.7789,
    "state": "NSW"
  },
  "Nhulunbuy": {
    "display_name": "Nhulunbuy, NT",
    "latitude": -12.180435,
    "longitude": 136.775991,
    "source": "OpenStreetMap Nominatim",
    "state": "NT",
    "verified": true
  },
  "NoosaHeads": {
    "display_name": "Noosa Heads, QLD",
    "latitude": -26.3821,
    "longitude": 153.0955,
    "state": "QLD"
  },
  "ParkesRadioScope": {
    "display_name": "Parkes Radio Telescope, NSW",
    "latitude": -32.9983,
    "longitude": 148.2635,
    "state": "NSW"
  },
  "PhillipIsland": {
    "display_name": "Phillip Island, VIC",
    "latitude": -38.5024,
    "longitude": 145.1481,
    "state": "VIC"
  },
  "PointLeo": {
    "display_name": "Point Leo, VIC",
    "latitude": -38.4233,
    "longitude": 145.0748,
    "state": "VIC"
  },
  "Pondalowie": {
    "display_name": "Pondalowie, SA",
    "latitude": -35.2342,
    "longitude": 136.8373,
    "state": "SA"
  },
  "PortFairy": {
    "display_name": "Port Fairy, VIC",
    "latitude": -38.3842,
    "longitude": 142.2353,
    "state": "VIC"
  },
  "RiverMurrayDarkSky": {
    "display_name": "River Murray Dark Sky, SA",
    "latitude": -34.6133,
    "longitude": 139.5533,
    "state": "SA"
  },
  "RoebuckBay": {
    "display_name": "Roebuck Bay, WA",
    "latitude": -17.9937,
    "longitude": 122.3162,
    "state": "WA"
  },
  "ShipsternBluff": {
    "display_name": "Shipstern Bluff, TAS",
    "latitude": -43.2123,
    "longitude": 147.8537,
    "state": "TAS"
  },
  "SnapperRocks": {
    "display_name": "Snapper Rocks, QLD",
    "latitude": -28.1633,
    "longitude": 153.5515,
    "state": "QLD"
  },
  "SunshineBeach": {
    "display_name": "Sunshine Beach, QLD",
    "latitude": -26.3972,
    "longitude": 153.1185,
    "state": "QLD"
  },
  "ThePinnacles": {
    "display_name": "The Pinnacles, WA",
    "latitude": -30.6043,
    "longitude": 115.1572,
    "state": "WA"
  },
  "Torquay": {
    "display_name": "Torquay, VIC",
    "latitude": -38.3333,
    "longitude": 144.3165,
    "state": "VIC"
  },
  "TriggPoint": {
    "display_name": "Trigg Point, WA",
    "latitude": -31.8783,
    "longitude": 115.7522,
    "state": "WA"
  },
  "TwelveApostles": {
    "display_name": "Twelve Apostles, VIC",
    "latitude": -38.6642,
    "longitude": 143.1033,
    "state": "VIC"
  },
  "Uluru": {
    "display_name": "Uluru, NT",
    "latitude": -25.3444,
    "longitude": 131.0369,
    "state": "NT"
  },
  "Waitpinga": {
    "display_name": "Waitpinga, SA",
    "latitude": -35.6323,
    "longitude": 138.4843,
    "state": "SA"
  },
  "Warrumbungle": {
    "display_name": "Warrumbungle, NSW",
    "latitude": -31.2753,
    "longitude": 149.0007,
    "state": "NSW"
  },
  "WaveRock": {
    "display_name": "Wave Rock, WA",
    "latitude": -32.4435,
    "longitude": 118.8973,
    "state": "WA"
  },
  "Whitsundays": {
    "display_name": "Whitsundays, QLD",
    "latitude": -20.2113,
    "longitude": 148.9563,
    "state": "QLD"
  },
  "WilpenaPound": {
    "display_name": "Wilpena Pound, SA",
    "latitude": -31.4983,
    "longitude": 138.5633,
    "state": "SA"
  },
  "WilsonsProm": {
    "display_name": "Wilsons Prom, VIC",
    "latitude": -39.0223,
    "longitude": 146.3313,
    "state": "VIC"
  },
  "Yallingup": {
    "display_name": "Yallingup, WA",
    "latitude": -33.6413,
    "longitude": 115.0243,
    "state": "WA"
  }
}